,city,country,id,date,latitude,longitude,temp,cloudiness,wind speed,humidity
0,Beloha,MG,1067565,09/26/19 18:07,-25.17,45.06,67.46540000000006,82,8.97,78
1,Shikhazany,RU,494514,09/26/19 18:07,55.56,47.39,39.2,0,5.0,93
2,Butaritari,KI,2110227,09/26/19 18:07,3.07,172.79,83.70140000000002,43,5.25,74
3,Thompson,CA,6165406,09/26/19 18:07,55.74,-97.86,42.8,75,4.6,48
4,Mecca,SA,104515,09/26/19 18:07,21.43,39.83,82.22540000000004,89,2.12,47
5,Mar del Plata,AR,3863379,09/26/19 18:07,-46.43,-67.52,63.415400000000055,80,8.76,29
6,North Platte,US,5697939,09/26/19 18:07,41.12,-100.77,76.33399999999999,1,8.7,38
7,Mataura,NZ,6201424,09/26/19 18:07,-46.19,168.86,50.0,94,4.47,92
8,Port Elizabeth,US,4501427,09/26/19 18:07,39.31,-74.98,75.47000000000006,75,4.1,54
9,Punta Arenas,CL,3874787,09/26/19 18:07,-53.16,-70.91,51.40400000000005,0,8.7,62
10,Chuy,UY,3443061,09/26/19 18:07,-33.69,-53.46,57.90740000000005,54,3.97,69
11,Wuwei,CN,1803936,09/26/19 18:07,37.93,102.64,53.42540000000004,0,1.71,30
12,Avarua,CK,4035715,09/26/19 18:07,-21.21,-159.78,78.8,37,2.1,78
13,Busselton,AU,2075265,09/26/19 18:07,-33.64,115.35,50.66600000000001,0,6.21,68
14,Terrace,CA,6162949,09/26/19 18:04,54.52,-128.61,48.2,75,5.7,93
15,Sistranda,NO,3139597,09/26/19 18:07,63.73,8.83,52.32200000000004,0,3.6,57
16,Upata,VE,3625710,09/26/19 18:07,8.02,-62.41,89.99600000000005,25,3.58,63
18,Rikitea,PF,4030556,09/26/19 18:07,-23.12,-134.97,71.4614,100,3.57,68
19,Jamestown,AU,2069194,09/26/19 18:07,-33.21,138.6,54.43340000000004,21,3.9,29
20,Georgetown,GY,3378644,09/26/19 18:05,6.8,-58.16,79.30400000000006,20,4.1,74
21,Egvekinot,RU,4031742,09/26/19 18:07,66.32,-179.17,26.821400000000086,100,3.64,94
22,Hobart,AU,2163355,09/26/19 18:05,-42.88,147.33,58.082000000000015,75,2.16,58
23,Sechura,PE,3691954,09/26/19 18:07,-5.56,-80.82,62.28140000000006,70,8.74,94
24,Basco,US,4863349,09/26/19 18:07,40.33,-91.2,73.68800000000005,1,2.1,33
26,Barrow,AR,3833859,09/26/19 18:07,-38.31,-60.23,58.48340000000004,0,6.06,55
27,Ptuj,SI,3192241,09/26/19 18:07,46.42,15.87,52.44800000000002,37,0.5,93
28,Kapaa,US,5848280,09/26/19 18:07,22.08,-159.32,83.96600000000001,75,5.1,74
29,Upernavik,GL,3418910,09/26/19 18:07,72.79,-56.15,38.9534,100,2.55,57
30,Bredasdorp,ZA,1015776,09/26/19 18:07,-34.53,20.04,57.90200000000008,0,0.86,66
31,Cape Town,ZA,3369157,09/26/19 18:07,-33.93,18.42,63.266000000000005,0,1.5,72
32,Hilo,US,5855927,09/26/19 18:07,19.71,-155.08,80.11400000000003,40,4.1,62
33,Tuktoyaktuk,CA,6170031,09/26/19 18:07,69.44,-133.03,37.4,75,9.8,86
34,Tchibanga,GA,2396253,09/26/19 18:07,-2.92,11.0,75.54740000000007,100,2.09,89
35,Ushuaia,AR,3833367,09/26/19 18:05,-54.81,-68.31,48.2,40,3.1,61
36,Bani Walid,LY,2218840,09/26/19 18:07,31.76,14.0,65.07140000000008,0,2.22,88
37,Wencheng,CN,6972233,09/26/19 18:07,27.79,120.09,57.889400000000066,0,0.2,97
38,Nizhniy Kuranakh,RU,2019135,09/26/19 18:07,58.84,125.49,38.98940000000007,23,1.05,94
39,Chicama,PE,3698359,09/26/19 18:07,-7.84,-79.15,62.6,75,6.7,82
40,Vostok,RU,2013279,09/26/19 18:07,46.45,135.83,41.797400000000074,0,1.8,73
41,New Norfolk,AU,2155415,09/26/19 18:07,-42.78,147.06,58.082000000000015,75,2.16,58
42,Los Llanos de Aridane,ES,2514651,09/26/19 18:07,28.66,-17.92,73.4,90,3.6,83
43,Valle de Allende,MX,3980627,09/26/19 18:07,26.94,-105.39,80.38940000000007,0,3.68,41
44,Ygatimi,PY,3436616,09/26/19 18:07,-24.08,-55.5,84.94340000000003,0,1.85,28
45,Bethel,US,5880568,09/26/19 18:07,60.79,-161.76,48.2,90,7.2,81
46,Tiksi,RU,2015306,09/26/19 18:07,71.64,128.87,34.831400000000066,100,1.16,93
47,Cayenne,GF,3382160,09/26/19 18:05,4.94,-52.33,84.2,0,4.1,74
48,Lorengau,PG,2092164,09/26/19 18:07,-2.02,147.27,80.62340000000006,17,3.7,82
49,Port Keats,AU,2063039,09/26/19 18:07,-14.25,129.55,75.13340000000004,25,2.4,92
50,Faanui,PF,4034551,09/26/19 18:04,-16.48,-151.75,79.72340000000005,76,8.13,78
51,Ahipara,NZ,2194098,09/26/19 18:07,-35.17,173.16,56.88140000000006,82,9.16,67
52,Hamilton,CA,5969785,09/26/19 18:07,43.26,-79.87,66.2,75,7.2,45
53,Portland,US,4975802,09/26/19 18:06,43.66,-70.25,62.258,90,1.5,93
54,Hermanus,ZA,3366880,09/26/19 18:07,-34.42,19.24,68.342,0,2.24,45
55,Riyadh,SA,108410,09/26/19 18:07,24.63,46.72,84.2,0,1.0,37
56,Qaanaaq,GL,3831208,09/26/19 18:07,77.48,-69.36,30.13340000000004,100,6.48,97
57,Chokurdakh,RU,2126123,09/26/19 18:07,70.62,147.9,23.941400000000044,62,5.01,94
58,Boa Vista,BR,3664980,09/26/19 18:07,2.82,-60.67,87.8,0,2.1,55
59,Esperance,AU,2071860,09/26/19 18:07,-33.86,121.89,51.8,75,2.1,100
60,Tasiilaq,GL,3424607,09/26/19 18:07,65.61,-37.64,39.2,44,6.2,86
61,Narsaq,GL,3421719,09/26/19 18:07,60.91,-46.05,46.4,3,2.6,52
63,Pilar,AR,3427208,09/26/19 18:07,-34.46,-58.91,68.28800000000004,0,8.2,49
64,Pshekhskaya,RU,504371,09/26/19 18:07,44.7,39.8,55.07600000000009,90,3.0,100
65,Ishigaki,JP,1861416,09/26/19 18:07,24.34,124.16,78.8,75,6.2,94
66,Tezu,IN,1254709,09/26/19 18:07,27.93,96.16,67.14140000000005,0,1.21,83
67,Mazatlan,MX,3996322,09/26/19 18:06,23.22,-106.42,88.43000000000004,20,3.6,62
68,Albany,US,5106834,09/26/19 18:05,42.65,-73.75,59.59400000000007,90,1.24,93
69,Gotsu,JP,1863521,09/26/19 18:07,35.01,132.22,74.21540000000006,83,1.96,67
70,Pajapan,MX,3522186,09/26/19 18:07,18.26,-94.69,89.6,75,5.1,66
71,Port Blair,IN,1259385,09/26/19 18:07,11.67,92.75,81.57740000000001,100,3.9,80
72,Ancud,CL,3899695,09/26/19 18:07,-41.87,-73.83,64.4,0,3.1,39
73,East London,ZA,1006984,09/26/19 18:07,-33.02,27.91,65.98940000000007,0,3.07,25
74,Kajaani,FI,654901,09/26/19 18:07,64.22,27.73,46.4,90,2.1,81
76,Laguna,BZ,3581398,09/26/19 18:07,16.17,-88.94,91.4,40,3.1,63
77,Taoudenni,ML,2450173,09/26/19 18:07,22.68,-3.98,98.01140000000001,2,2.51,9
78,Kant,KG,1528193,09/26/19 18:07,42.89,74.85,53.6,0,3.0,87
79,Ribeira Grande,PT,3372707,09/26/19 18:07,38.52,-28.7,72.54140000000004,0,4.57,88
80,Opuwo,NA,3354077,09/26/19 18:07,-18.06,13.84,74.19740000000007,0,4.96,25
81,Umm Lajj,SA,100926,09/26/19 18:07,25.02,37.27,85.12340000000006,0,4.62,59
82,Tupelo,US,4448903,09/26/19 18:07,34.26,-88.7,89.708,20,3.1,55
83,Havelock,US,4470244,09/26/19 18:07,34.88,-76.9,82.79600000000005,1,7.7,62
84,Marawi,PH,1701054,09/26/19 18:07,8.0,124.29,75.00200000000008,2,2.68,90
85,Codrington,AU,2160063,09/26/19 18:07,-28.95,153.24,63.75200000000008,90,2.12,93
86,Kemi,FI,653281,09/26/19 18:07,65.74,24.56,46.4,90,0.5,100
88,Castro,CL,3896218,09/26/19 18:07,-42.48,-73.76,64.4,0,3.1,39
90,Berezovyy,RU,2026786,09/26/19 18:07,51.67,135.7,34.61540000000006,0,2.06,80
91,Waitati,NZ,2179825,09/26/19 18:07,-45.75,170.57,51.998000000000026,71,12.96,68
92,Saskylakh,RU,2017155,09/26/19 18:07,71.97,114.09,30.457400000000053,91,2.74,97
93,Hillsborough,US,5357155,09/26/19 18:07,37.57,-122.38,74.71400000000003,1,8.2,68
94,Mehamn,NO,778707,09/26/19 18:07,71.03,27.85,44.65400000000005,75,3.6,100
95,Grand Gaube,MU,934479,09/26/19 18:07,-20.01,57.66,73.23800000000004,40,3.1,88
96,Corinth,GR,259289,09/26/19 18:07,37.94,22.93,71.15,20,1.32,78
98,Vanimo,PG,2084442,09/26/19 18:07,-2.67,141.3,80.96540000000006,44,2.97,78
99,Federal Way,US,5794245,09/26/19 18:07,47.31,-122.34,63.860000000000085,75,1.21,100
101,Vaini,IN,1273574,09/26/19 18:07,15.34,74.49,74.34140000000005,100,1.39,95
102,Huandacareo,MX,4004690,09/26/19 18:07,19.99,-101.28,80.6,75,1.5,42
103,Lasa,CY,146639,09/26/19 18:07,34.92,32.53,69.85400000000006,0,3.1,83
104,Ganzhou,CN,1810638,09/26/19 18:07,25.86,114.93,63.84740000000007,0,2.0,66
105,Leningradskiy,RU,2123814,09/26/19 18:07,69.38,178.42,27.739400000000067,99,6.47,77
107,Rio Grande,BR,3451138,09/26/19 18:05,-32.03,-52.1,63.82400000000001,0,6.2,48
108,Ashqelon,IL,295620,09/26/19 18:07,31.67,34.57,73.77800000000006,0,1.5,78
109,Khatanga,RU,2022572,09/26/19 18:07,71.98,102.47,32.671400000000084,100,4.24,97
110,Klaksvik,FO,2618795,09/26/19 18:07,62.23,-6.59,53.6,100,11.8,87
111,Balkhash,KZ,1525798,09/26/19 18:07,46.84,74.98,60.49940000000005,100,3.6,46
112,Camabatela,AO,2242885,09/26/19 18:07,-8.19,15.37,69.53540000000001,100,0.51,91
113,Atuona,PF,4020109,09/26/19 18:07,-9.8,-139.03,79.81340000000009,95,7.54,74
114,Severo-Kurilsk,RU,2121385,09/26/19 18:07,50.68,156.12,45.88340000000004,100,13.01,82
115,Flin Flon,CA,5954718,09/26/19 18:07,54.77,-101.88,44.6,75,5.1,70
116,Pacific Grove,US,5380437,09/26/19 18:07,36.62,-121.92,73.31000000000009,1,6.7,50
117,Corumba,BR,3465342,09/26/19 18:07,-19.0,-57.65,85.06400000000004,20,2.1,51
118,Dossor,KZ,610023,09/26/19 18:07,47.52,52.98,49.87940000000009,71,5.1,42
119,Qaqortoq,GL,3420846,09/26/19 18:07,60.72,-46.03,46.4,3,2.6,52
120,Oranjestad,AW,3577154,09/26/19 18:06,12.52,-70.03,89.6,20,3.6,66
121,San Jose,HN,3602137,09/26/19 18:05,14.25,-87.96,87.8,75,7.7,58
122,Bilma,NE,2446796,09/26/19 18:07,18.69,12.92,91.08140000000006,0,2.11,12
123,Kysyl-Syr,RU,2021017,09/26/19 18:07,63.9,122.77,30.907400000000052,19,2.52,92
124,Ondangwa,NA,3354247,09/26/19 18:07,-17.91,15.98,80.6,0,3.6,26
125,Luderitz,NA,3355672,09/26/19 18:07,-26.65,15.16,73.4,100,2.6,38
126,Arraial do Cabo,BR,3471451,09/26/19 18:07,-22.97,-42.02,68.0,90,3.6,94
127,Sobolevo,RU,525426,09/26/19 18:07,54.43,31.9,39.79940000000005,2,1.83,76
128,Cabo San Lucas,MX,3985710,09/26/19 18:02,22.89,-109.91,86.97200000000004,5,5.7,58
129,Ouango,CD,236844,09/26/19 18:07,4.31,22.55,68.50940000000003,78,0.57,99
130,Sao Joao da Barra,BR,3448903,09/26/19 18:07,-21.64,-41.05,68.0,90,0.78,94
131,Port Alfred,ZA,964432,09/26/19 18:07,-33.59,26.89,59.0,0,2.16,77
132,Tezpur,IN,1254710,09/26/19 18:07,26.62,92.79,74.86340000000008,52,1.13,92
133,Ust-Kuyga,RU,2013921,09/26/19 18:07,70.0,135.55,27.721400000000084,100,1.27,96
134,Whitianga,NZ,2179103,09/26/19 18:07,-36.83,175.7,60.008,25,2.68,71
135,Birao,CF,240210,09/26/19 18:07,10.3,22.78,72.30740000000006,100,1.02,93
137,Pavino,RU,1495483,09/26/19 18:07,55.02,82.61,28.4,99,1.0,79
138,Lagoa,PT,2267254,09/26/19 18:07,37.14,-8.45,67.15400000000005,0,3.6,77
139,Brylivka,UA,711435,09/26/19 18:07,46.42,33.15,49.66340000000008,86,2.67,84
140,Half Moon Bay,US,5354943,09/26/19 18:07,37.46,-122.43,77.09000000000002,1,8.2,68
141,Sitka,US,4267710,09/26/19 18:07,37.17,-99.65,70.03399999999999,100,4.47,77
142,Tynda,RU,2014718,09/26/19 18:07,55.15,124.74,39.79940000000005,100,1.68,94
143,Honningsvag,NO,779554,09/26/19 18:07,70.98,25.97,45.28399999999999,75,1.5,93
144,Hasaki,JP,2112802,09/26/19 18:07,35.73,140.83,61.52000000000006,20,0.5,100
145,Rancho San Diego,MX,4004887,09/26/19 18:07,30.59,-112.28,82.50800000000001,55,1.34,69
146,Kenora,CA,5991056,09/26/19 18:07,49.76,-94.48,55.86800000000009,88,7.2,50
147,Irituia,BR,3398014,09/26/19 18:07,-1.77,-47.44,80.96540000000006,67,3.18,76
148,Cockburn Town,TC,3576994,09/26/19 18:03,21.46,-71.14,87.8,40,1.5,70
149,Straumen,NO,3135728,09/26/19 18:07,63.87,11.3,52.43000000000004,0,4.1,57
151,Victoria,BN,1733782,09/26/19 18:07,5.28,115.24,78.63800000000005,75,0.5,88
152,Kahului,US,5847411,09/26/19 18:03,20.89,-156.47,83.984,20,8.7,52
153,Kuppam,IN,1265555,09/26/19 18:07,12.75,78.34,68.34740000000008,100,1.31,92
155,Chegdomyn,RU,2025579,09/26/19 18:07,51.13,133.04,32.02340000000006,0,1.26,95
156,Ostrovnoy,RU,556268,09/26/19 18:07,68.05,39.51,37.6034,83,5.34,90
157,Zaria,NG,2317765,09/26/19 18:07,11.11,7.72,71.24539999999999,100,5.56,92
158,Biryusinsk,RU,1510041,09/26/19 18:07,55.96,97.82,32.725400000000036,15,2.39,93
159,Carnarvon,ZA,1014034,09/26/19 18:07,-30.97,22.13,56.125400000000035,0,1.72,20
160,Stokmarknes,NO,3136690,09/26/19 18:07,68.56,14.91,43.32200000000004,0,1.5,87
161,Yellowknife,CA,6185377,09/26/19 18:07,62.45,-114.38,37.202000000000076,75,6.7,64
162,Mitsamiouli,KM,921786,09/26/19 18:07,-11.38,43.28,77.23940000000007,0,11.38,76
163,Nikolskoye,RU,546105,09/26/19 18:07,59.7,30.79,46.07600000000009,90,2.0,81
164,Coquimbo,CL,3893629,09/26/19 18:07,-29.95,-71.34,55.4,75,5.1,76
165,Cidreira,BR,3466165,09/26/19 18:07,-30.17,-50.22,66.65540000000007,0,2.71,76
166,Richards Bay,ZA,962367,09/26/19 18:07,-28.77,32.06,63.12740000000001,0,6.1,66
167,Bowen,AU,2174444,09/26/19 18:07,-20.01,148.25,68.0,90,3.6,88
168,Kirakira,SB,2178753,09/26/19 18:07,-10.46,161.92,79.95740000000005,91,3.05,80
169,Ambon,FR,3037899,09/26/19 18:07,47.55,-2.56,60.51200000000006,90,4.1,93
170,Atasu,KZ,1526041,09/26/19 18:07,48.68,71.64,53.731400000000065,100,3.72,59
172,Kodiak,US,4407665,09/26/19 18:07,39.95,-94.76,74.94800000000002,1,5.1,46
173,Souillac,FR,3026644,09/26/19 18:07,45.6,-0.6,62.54600000000005,90,4.1,88
174,Normandin,CA,6089179,09/26/19 18:07,48.84,-72.53,55.4,75,3.1,93
175,Jizan,SA,105299,09/26/19 18:07,16.89,42.56,89.6,0,1.5,75
176,Cherskiy,RU,2126199,09/26/19 18:07,68.75,161.3,30.72740000000001,99,1.94,54
177,Candido Mendes,BR,3403395,09/26/19 18:07,-1.45,-45.72,76.77140000000009,60,2.05,89
178,Jumla,NP,1283285,09/26/19 18:07,29.28,82.18,51.57140000000008,100,0.91,98
179,Shelburne,CA,6145890,09/26/19 18:07,44.08,-80.2,61.50200000000008,20,6.7,45
180,Hay River,CA,5972762,09/26/19 18:07,60.82,-115.79,41.0,90,2.1,80
181,Warri,NG,2319133,09/26/19 18:07,5.52,5.75,79.1114,66,3.26,84
182,Mareeba,AU,2158767,09/26/19 18:07,-16.99,145.42,71.20400000000005,90,7.7,73
183,Alice Springs,AU,2077895,09/26/19 18:07,-23.7,133.88,57.2,58,2.1,87
185,Healdsburg,US,5356012,09/26/19 18:07,38.61,-122.87,73.31000000000009,1,6.2,53
186,Salinopolis,BR,3389822,09/26/19 18:07,-0.61,-47.36,81.77540000000003,59,8.14,80
187,Bambous Virieux,MU,1106677,09/26/19 18:07,-20.34,57.76,73.20200000000008,40,3.1,88
188,Lebu,ET,344979,09/26/19 18:07,8.96,38.73,54.05540000000008,26,2.06,80
189,Mahebourg,MU,934322,09/26/19 18:07,-20.41,57.7,73.184,40,3.1,88
190,Airai,TL,1651810,09/26/19 18:07,-8.93,125.41,67.46540000000006,0,1.82,77
192,Matara,BI,425378,09/26/19 18:07,-3.48,29.48,53.857400000000055,68,0.81,86
193,Sembakung,ID,1627877,09/26/19 18:07,3.82,117.25,73.02740000000001,5,0.68,97
194,Santa Isabel do Rio Negro,BR,3662489,09/26/19 18:07,-0.41,-65.02,87.98540000000001,84,0.7,58
195,Doha,QA,290030,09/26/19 18:03,25.29,51.53,91.4,0,1.5,70
197,Avera,US,4231997,09/26/19 18:07,33.19,-82.53,95.39600000000004,75,2.1,36
198,Bluff,AU,2175403,09/26/19 18:07,-23.58,149.07,61.795399999999994,7,4.89,86
200,Sao Joao do Piaui,BR,3388618,09/26/19 18:04,-8.36,-42.25,85.10540000000007,14,1.8,26
201,Saint-Philippe,CA,6138908,09/26/19 18:07,45.36,-73.48,61.84400000000007,1,1.5,93
202,Sabang,PH,1726279,09/26/19 18:07,13.8,121.11,77.0,0,1.04,95
203,Obo,CF,236950,09/26/19 18:07,5.39,26.49,67.89740000000008,86,1.13,97
205,Kabanjahe,ID,1214965,09/26/19 18:07,3.1,98.49,80.00600000000003,16,0.75,59
206,Kruisfontein,ZA,986717,09/26/19 18:07,-34.0,24.73,63.88340000000004,0,2.25,23
207,Lahat,ID,1638775,09/26/19 18:07,-3.78,103.55,65.80940000000002,43,1.92,78
208,Krasnovishersk,RU,542184,09/26/19 18:07,60.4,57.08,32.545399999999994,100,3.71,97
209,Kaniama,CD,214389,09/26/19 18:07,-7.57,24.18,71.15540000000007,6,0.63,72
210,Namibe,AO,3347019,09/26/19 18:07,-15.19,12.15,67.93340000000003,56,3.71,87
211,Samarai,PG,2132606,09/26/19 18:07,-10.62,150.67,74.64740000000008,100,2.46,94
212,Ixtapa,MX,4004293,09/26/19 18:07,20.71,-105.21,89.88800000000005,75,3.6,70
213,Solnechnyy,RU,2016307,09/26/19 18:07,50.72,136.64,36.901400000000024,0,0.18,81
215,Nanortalik,GL,3421765,09/26/19 18:07,60.14,-45.24,42.553399999999996,0,0.36,77
216,Anju,KP,1879613,09/26/19 18:07,39.62,125.66,62.13739999999999,100,2.15,87
217,Le Port,FR,3036965,09/26/19 18:07,42.87,1.37,60.96200000000006,0,0.89,61
218,Manta,RO,685981,09/26/19 18:07,45.1,24.1,52.48940000000007,0,1.99,84
219,Lincoln,GB,2644487,09/26/19 18:07,53.23,-0.54,55.79600000000005,0,6.7,87
220,Atyrau,KZ,610529,09/26/19 18:07,47.1,51.92,39.2,0,2.0,64
221,Karaton,ID,1630058,09/26/19 18:07,-6.34,106.1,77.0,20,3.1,83
222,Makakilo City,US,5850554,09/26/19 18:07,21.35,-158.09,83.96600000000001,1,4.1,74
223,Meulaboh,ID,1214488,09/26/19 18:07,4.14,96.13,79.74140000000004,97,4.21,85
224,Clyde River,CA,5924351,09/26/19 18:07,70.47,-68.59,39.2,20,4.6,93
225,Sorland,NO,3137469,09/26/19 18:07,67.67,12.69,41.0,0,4.12,100
227,Illapel,CL,3887344,09/26/19 18:07,-31.63,-71.17,55.13540000000002,18,2.14,77
228,Isangel,VU,2136825,09/26/19 18:07,-19.55,169.27,73.4,75,3.1,73
229,Tarbert,GB,2636241,09/26/19 18:07,55.86,-5.42,55.202000000000076,100,6.2,93
230,Puerto Ayora,EC,3652764,09/26/19 18:07,-0.74,-90.35,73.54400000000007,75,6.7,65
231,Hithadhoo,MV,1282256,09/26/19 18:07,-0.6,73.08,81.82940000000009,100,9.46,80
232,Independence,US,4391812,09/26/19 18:04,39.09,-94.42,76.02800000000006,1,2.6,31
234,Tiznit,MA,2527089,09/26/19 18:07,29.7,-9.73,68.41940000000001,0,2.35,86
235,Vallenar,CL,3868633,09/26/19 18:07,-28.58,-70.76,62.74940000000005,0,4.42,45
236,Adrar,DZ,2508813,09/26/19 18:07,27.87,-0.29,93.2,20,3.1,8
238,Caraballeda,VE,3646767,09/26/19 18:07,10.61,-66.85,86.50400000000005,75,2.1,59
240,Aktau,KZ,610612,09/26/19 18:05,43.65,51.16,55.4,40,8.0,66
241,Lodeynoye Pole,RU,534560,09/26/19 18:07,60.73,33.55,39.76340000000008,97,1.06,96
242,San Patricio,PY,3437029,09/26/19 18:07,-26.98,-56.83,73.98140000000006,0,2.2,50
243,Kaitangata,NZ,2208248,09/26/19 18:07,-46.28,169.85,55.004000000000055,86,6.71,57
244,Villarrica,CL,3868158,09/26/19 18:05,-39.28,-72.23,69.71000000000008,0,4.1,64
245,Visnes,NO,3131500,09/26/19 18:07,59.36,5.22,58.964000000000034,100,10.8,71
246,Cumpas,MX,4012143,09/26/19 18:07,30.0,-109.78,79.05740000000006,0,5.41,47
247,Naze,NG,2337542,09/26/19 18:07,5.43,7.07,77.0,75,2.49,94
248,Letterkenny,IE,2962961,09/26/19 18:07,54.95,-7.73,48.8534,18,3.93,93
249,Biak,ID,1637001,09/26/19 18:07,-0.91,122.88,60.01340000000008,55,1.65,98
250,Columbus,US,4188985,09/26/19 18:03,32.46,-84.99,95.21600000000001,75,1.5,36
251,Bihac,BA,3204222,09/26/19 18:07,44.82,15.87,51.64340000000002,31,1.33,82
253,Cap Malheureux,MU,934649,09/26/19 18:07,-19.98,57.61,73.23800000000004,40,3.1,88
254,Abeokuta,NG,2352947,09/26/19 18:07,7.16,3.35,80.6,20,1.0,88
255,Kiri Buru,IN,1266503,09/26/19 18:07,22.08,85.35,71.11940000000001,100,0.75,98
256,Maamba,ZM,908718,09/26/19 18:07,-17.36,27.22,55.909400000000026,0,1.94,48
257,Mayo,CA,6068416,09/26/19 18:07,63.59,-135.9,46.4,75,1.0,50
258,Kovur,IN,1265888,09/26/19 18:07,14.5,79.99,79.03940000000007,26,3.27,83
259,Zhigansk,RU,2012530,09/26/19 18:07,66.77,123.37,31.159400000000026,51,4.6,84
261,Provideniya,RU,4031574,09/26/19 18:07,64.42,-173.23,48.2,90,8.0,93
262,Mossendjo,CG,2256895,09/26/19 18:07,-2.95,12.72,72.79340000000002,100,2.05,93
263,Newala,TZ,877532,09/26/19 18:07,-10.94,39.28,73.1534,100,4.12,71
264,Campbell River,CA,5914132,09/26/19 18:07,50.02,-125.24,61.268000000000086,20,5.1,48
265,Cervo,BR,3469169,09/26/19 18:07,-22.19,-46.24,61.849400000000045,100,1.02,88
266,Xuddur,SO,49747,09/26/19 18:07,4.12,43.89,74.59340000000002,50,8.49,68
267,Mhlambanyatsi,SZ,934971,09/26/19 18:07,-26.45,31.02,42.409400000000026,0,1.45,86
268,Wajima,JP,1848976,09/26/19 18:07,37.4,136.9,72.10940000000002,45,4.38,65
269,Mount Isa,AU,2065594,09/26/19 18:07,-20.73,139.49,73.4,0,6.2,31
270,Chapais,CA,5919850,09/26/19 18:07,49.78,-74.86,50.0,75,6.7,81
271,Jardim,BR,3460087,09/26/19 18:04,-21.48,-56.15,86.59940000000005,0,3.07,32
274,Ilulissat,GL,3423146,09/26/19 18:07,69.22,-51.1,42.8,20,8.2,26
275,Zonguldak,TR,737021,09/26/19 18:06,41.25,31.83,69.96740000000003,33,1.09,74
276,Dikson,RU,1507390,09/26/19 18:07,73.51,80.55,34.95740000000005,100,3.7,92
277,Pisco,PE,3932145,09/26/19 18:06,-13.71,-76.2,67.87400000000001,20,5.1,30
278,Vardo,US,4372777,09/26/19 18:07,39.62,-77.74,79.05200000000008,40,3.1,42
279,Nong Chik,TH,1608263,09/26/19 18:07,6.84,101.18,81.10940000000002,100,3.77,77
280,Lamar,US,5427957,09/26/19 18:07,38.09,-102.62,84.2,1,8.2,35
281,Zeya,RU,2012593,09/26/19 18:07,53.74,127.27,39.13340000000004,0,1.22,95
283,Westport,US,4845585,09/26/19 18:07,41.14,-73.36,64.00400000000005,90,5.1,93
285,Vila Velha,BR,6320062,09/26/19 18:07,-3.71,-38.6,79.64600000000004,0,5.1,69
286,Denpasar,ID,1645528,09/26/19 18:05,-8.65,115.22,77.0,75,2.6,94
287,Talnakh,RU,1490256,09/26/19 18:07,69.49,88.39,32.0,40,3.0,87
288,Praia,BR,3460954,09/26/19 18:07,-20.25,-43.81,62.6,75,2.6,93
289,Rongcheng,CN,1786855,09/26/19 18:07,37.16,122.42,63.45140000000002,15,1.42,69
290,Raigarh,IN,1259005,09/26/19 18:07,21.9,83.39,72.3614,100,1.59,96
291,Wattegama,LK,1241622,09/26/19 18:07,7.35,80.68,70.2374,91,0.92,92
292,Teya,MX,3526662,09/26/19 18:07,21.05,-89.07,88.68200000000002,75,4.1,66
293,Pittsburg,US,5383465,09/26/19 18:07,38.02,-121.89,77.48600000000008,1,9.3,44
294,Okato,NZ,2185763,09/26/19 18:05,-39.19,173.88,51.008,40,10.28,81
296,Katsuura,JP,1865309,09/26/19 18:07,33.93,134.5,73.02200000000003,75,1.5,94
297,Morwell,AU,2156825,09/26/19 18:07,-38.24,146.4,55.004000000000055,100,4.02,60
298,Sterling,US,4787534,09/26/19 18:05,39.0,-77.4,79.934,40,5.7,51
299,Tera,CY,146639,09/26/19 18:07,34.97,32.42,69.89000000000001,0,3.1,83
300,Lac du Bonnet,CA,6014443,09/26/19 18:07,50.25,-96.06,48.992,100,3.48,79
301,Ahlen,DE,2959223,09/26/19 18:07,51.76,7.89,61.628000000000064,100,5.7,88
302,Malanje,AO,2239862,09/26/19 18:07,-9.54,16.35,71.78540000000001,100,4.06,70
303,Sao Filipe,CV,3374210,09/26/19 18:07,14.9,-24.5,77.83340000000004,0,7.13,83
304,Okhotsk,RU,2122605,09/26/19 18:07,59.36,143.24,34.831400000000066,100,3.24,47
305,Dauriya,RU,2025099,09/26/19 18:07,49.93,116.85,57.4034,9,3.85,35
306,Altamira,BR,3407882,09/26/19 18:07,-3.2,-52.21,80.92940000000009,35,1.39,66
307,Nueve de Julio,AR,3842882,09/26/19 18:07,-31.67,-68.39,89.96540000000006,0,0.84,13
308,Lata,IN,1253628,09/26/19 18:07,30.78,78.62,36.5954,22,0.92,92
309,Colac,AU,2171069,09/26/19 18:07,-38.34,143.59,56.21000000000008,100,2.38,70
311,Ust-Ishim,RU,1488206,09/26/19 18:07,57.69,71.17,31.249400000000048,31,2.91,96
312,Touros,BR,3386213,09/26/19 18:07,-5.2,-35.46,77.0,20,4.1,73
313,Hofn,IS,2630299,09/26/19 18:07,64.25,-15.21,40.44740000000007,100,3.81,98
314,Suluq,LY,81604,09/26/19 18:07,31.67,20.25,75.76340000000008,0,4.29,72
315,Saldanha,PT,2737599,09/26/19 18:07,41.42,-6.55,63.559400000000025,0,1.48,56
316,Russell,US,4278471,09/26/19 18:07,38.9,-98.86,69.908,90,6.2,68
317,Levelland,US,5525042,09/26/19 18:07,33.59,-102.38,92.516,40,5.7,36
319,Payo,ID,1638775,09/26/19 18:07,-3.75,103.64,65.80940000000002,43,1.92,78
320,Kavieng,PG,2094342,09/26/19 18:07,-2.57,150.8,84.02540000000003,18,5.57,74
322,Liling,CN,1803616,09/26/19 18:07,27.65,113.49,68.0,0,1.0,77
324,Grindavik,IS,3416888,09/26/19 18:07,63.84,-22.43,57.56000000000008,75,2.1,87
325,Visby,SE,2662689,09/26/19 18:07,57.64,18.3,48.97400000000001,0,1.0,93
326,Lavrentiya,RU,4031637,09/26/19 18:07,65.58,-170.99,35.22740000000001,100,6.62,94
327,Road Town,VG,3577430,09/26/19 18:04,18.42,-64.62,84.00200000000008,40,5.1,74
329,Camocim,BR,3403687,09/26/19 18:07,-2.9,-40.84,78.98540000000001,0,3.95,72
330,Tokur,RU,2015217,09/26/19 18:07,53.13,132.9,35.02940000000009,2,2.53,94
331,Bathsheba,BB,3374083,09/26/19 18:07,13.22,-59.52,86.0,20,5.1,62
332,Paso de los Toros,UY,3441273,09/26/19 18:07,-32.81,-56.52,68.83340000000004,0,4.23,75
334,Puerto del Rosario,ES,2512186,09/26/19 18:08,28.5,-13.86,75.2,75,7.2,78
335,Saint George,GR,262462,09/26/19 18:08,39.45,22.34,68.0,20,2.71,88
336,Tuatapere,NZ,2180815,09/26/19 18:08,-46.13,167.69,50.0,97,4.47,92
337,Zhezkazgan,KZ,1516589,09/26/19 18:08,47.8,67.71,63.019400000000005,100,3.05,44
340,Port Macquarie,AU,2152659,09/26/19 18:08,-31.43,152.91,60.242,40,2.6,100
341,Constitucion,MX,4011743,09/26/19 18:08,23.99,-104.67,74.44400000000007,75,2.1,35
342,Concepcion del Oro,MX,4013039,09/26/19 18:08,24.63,-101.42,71.83940000000007,64,3.99,49
343,Sur,OM,286245,09/26/19 18:08,22.57,59.53,82.83739999999999,79,3.13,63
344,Port Hardy,CA,6111862,09/26/19 18:08,50.7,-127.42,57.2,20,6.7,67
345,Augusto Correa,BR,3406961,09/26/19 18:08,-1.02,-46.63,77.32940000000009,43,2.01,88
346,Waddan,LY,2209055,09/26/19 18:08,29.16,16.14,78.84140000000005,0,6.01,54
347,Northam,AU,2064550,09/26/19 18:08,-31.65,116.67,55.4,0,7.2,76
348,Boyolangu,ID,1648082,09/26/19 18:08,-8.09,111.9,67.15940000000003,99,2.6,92
349,Forrest City,US,4111382,09/26/19 18:08,35.01,-90.79,81.80600000000003,74,2.6,62
350,Tura,RU,2014833,09/26/19 18:08,64.27,100.22,31.177400000000013,100,1.26,95
351,Bondo,CD,218253,09/26/19 18:08,3.81,23.69,67.9874,0,0.75,98
352,Praia da Vitoria,PT,3372760,09/26/19 18:08,38.73,-27.07,73.4,20,4.8,88
354,Evensk,RU,2125693,09/26/19 18:08,61.92,159.24,34.59740000000007,92,4.52,70
355,Port Hedland,AU,2063042,09/26/19 18:08,-20.31,118.58,64.4,0,1.5,93
357,La Palma,CO,3687505,09/26/19 18:08,5.36,-74.39,83.10740000000006,70,1.57,61
358,Yumen,CN,1528998,09/26/19 18:08,40.29,97.04,61.52540000000003,0,1.34,18
359,Ciudad Bolivar,VE,3645532,09/26/19 18:08,8.12,-63.55,89.87540000000004,41,1.56,54
361,Pleasanton,US,5383777,09/26/19 18:06,37.66,-121.87,79.53800000000004,1,3.6,39
362,Ponta do Sol,BR,3453439,09/26/19 18:08,-20.63,-46.0,62.82140000000008,100,1.55,97
363,Caravelas,BR,3466980,09/26/19 18:08,-17.73,-39.27,75.25940000000003,28,4.72,79
364,Imuris,MX,4004399,09/26/19 18:08,30.78,-110.86,84.00200000000008,0,0.89,56
365,Sola,TZ,151211,09/26/19 18:08,-3.17,33.8,72.72140000000009,41,2.79,52
366,Geraldton,CA,5960603,09/26/19 18:08,49.72,-86.95,55.4,75,6.2,50
367,Rabo de Peixe,PT,3372745,09/26/19 18:08,37.8,-25.58,71.29400000000007,75,2.6,94
368,Bara,NG,2347758,09/26/19 18:08,10.41,10.6,75.5294000000001,100,1.57,76
369,Yaan,NG,2338660,09/26/19 18:08,7.38,8.57,75.51140000000001,99,1.02,95
370,Hermiston,US,5731070,09/26/19 18:08,45.84,-119.29,74.13800000000005,1,8.7,49
371,Nizwa,OM,286987,09/26/19 18:08,22.93,57.53,73.51340000000008,1,0.57,69
372,Zaoyang,CN,1785462,09/26/19 18:08,32.12,112.76,69.5534,0,2.48,53
373,Veracruz,EC,3659602,09/26/19 18:08,-3.97,-79.57,87.8,20,5.7,27
374,Campbellton,CA,6696258,09/26/19 18:04,48.0,-66.68,51.80540000000008,100,1.53,97
375,Grojec,PL,3098276,09/26/19 18:08,50.09,19.57,54.320000000000064,75,1.5,93
376,Pasni,PK,1168312,09/26/19 18:08,25.26,63.48,86.52740000000001,3,1.22,59
377,Udachnyy,RU,2014624,09/26/19 18:06,66.42,112.4,32.0,90,2.0,84
378,Henties Bay,NA,3356832,09/26/19 18:08,-22.12,14.28,57.992,100,0.45,95
379,Ottawa,CA,6094817,09/26/19 18:05,45.42,-75.69,60.22400000000001,75,5.1,77
380,Turukhansk,RU,1488903,09/26/19 18:08,65.8,87.96,33.03140000000006,100,4.74,97
381,Gravelbourg,CA,5965462,09/26/19 18:08,49.88,-106.56,47.125400000000035,100,4.16,76
382,Iqaluit,CA,5983720,09/26/19 18:08,63.75,-68.52,39.110000000000085,20,4.1,80
383,Vestmannaeyjar,IS,3412093,09/26/19 18:08,63.44,-20.27,51.067400000000035,99,1.57,91
385,Margate,AU,2158744,09/26/19 18:08,-43.03,147.26,58.082000000000015,75,2.16,58
386,Tahoua,NE,2439376,09/26/19 18:08,14.89,5.26,96.37340000000006,38,0.87,22
387,Fortuna,US,5563839,09/26/19 18:08,40.6,-124.16,65.91200000000006,20,7.2,68
388,Vila Franca do Campo,PT,3372472,09/26/19 18:08,37.72,-25.43,71.29400000000007,75,2.6,94
389,Kirillov,RU,548478,09/26/19 18:08,59.86,38.38,41.0,75,1.0,86
390,Sarankhola,BD,1185239,09/26/19 18:08,22.31,89.79,73.94539999999999,100,2.07,90
391,Kieta,PG,2094027,09/26/19 18:08,-6.22,155.63,80.82140000000008,0,1.85,79
392,Nabire,ID,1634614,09/26/19 18:08,-3.36,135.5,70.07540000000003,100,1.15,99
393,Bage,IN,1257698,09/26/19 18:08,12.95,75.85,67.21340000000008,60,1.06,95
394,Norrtalje,SE,2688250,09/26/19 18:08,59.76,18.7,40.78399999999999,0,1.5,86
395,Yashkul,RU,468747,09/26/19 18:08,46.17,45.34,50.63540000000002,100,2.22,73
396,Ostersund,SE,2685750,09/26/19 18:08,63.18,14.64,38.42600000000009,0,4.6,93
397,Innisfail,AU,2162683,09/26/19 18:08,-17.52,146.03,62.99600000000005,100,2.68,91
398,Acapulco,MX,3533462,09/26/19 18:08,16.86,-99.88,87.8,40,3.6,70
399,Bonavista,CA,5905393,09/26/19 18:04,48.65,-53.11,48.992,100,2.24,83
400,Arcozelo,PT,2742797,09/26/19 18:08,41.05,-8.64,60.674000000000014,0,1.5,93
402,Miranda de Ebro,ES,3116689,09/26/19 18:08,42.69,-2.95,59.504000000000055,20,0.76,93
403,Komsomolskiy,RU,1486910,09/26/19 18:08,67.55,63.78,30.385400000000015,95,2.49,96
404,Havre-Saint-Pierre,CA,5972291,09/26/19 18:08,50.23,-63.6,48.2,90,4.6,87
405,Chernyshevskiy,RU,2025456,09/26/19 18:08,63.01,112.47,32.02340000000006,96,0.11,86
406,Jiaozuo,CN,1805987,09/26/19 18:08,35.21,113.25,62.58739999999999,2,0.98,48
407,Havoysund,NO,779622,09/26/19 18:08,71.0,24.66,46.4,75,5.1,93
408,Puerto Narino,CO,3671387,09/26/19 18:08,-3.77,-70.38,91.4,40,1.0,59
409,Kosh-Agach,RU,1502422,09/26/19 18:08,49.99,88.66,31.141400000000043,9,0.33,82
410,Uruzgan,AF,1131462,09/26/19 18:08,32.93,66.63,50.00540000000008,0,1.83,24
411,Price,US,5545269,09/26/19 18:06,39.6,-110.81,78.96200000000006,1,3.72,19
412,San Vicente,EC,3660401,09/26/19 18:08,-0.59,-80.41,78.8,75,4.1,74
413,Fairbanks,US,5861897,09/26/19 18:05,64.84,-147.72,38.55200000000008,75,2.6,86
414,Kibaek,DK,2618931,09/26/19 18:08,56.03,8.86,59.108000000000004,90,4.6,100
415,Kyzyl-Suu,KG,1527497,09/26/19 18:08,42.34,78.0,63.7034,0,3.5,59
416,Andra,RU,1511646,09/26/19 18:08,62.52,65.89,35.96540000000006,100,4.09,75
417,Viedma,AR,3832899,09/26/19 18:08,-40.81,-62.99,53.803399999999996,67,7.51,54
419,Nemuro,JP,2128975,09/26/19 18:08,43.32,145.57,59.0954,0,3.22,65
420,Baruun-Urt,MN,2032614,09/26/19 18:08,46.68,113.28,56.179400000000086,86,5.32,36
421,San Cristobal,HN,3609418,09/26/19 18:08,14.68,-86.92,79.0034,81,2.49,78
422,Dudinka,RU,1507116,09/26/19 18:08,69.41,86.18,32.0,40,3.0,96
423,Mokhsogollokh,RU,2019867,09/26/19 18:08,61.4,128.95,38.59340000000002,28,3.64,95
424,Piura,PE,3693528,09/26/19 18:08,-5.2,-80.63,73.36940000000001,7,7.13,63
425,Arroyo,BO,3906466,09/26/19 18:08,-11.08,-66.08,77.0,75,2.1,83
426,Tautira,PF,4033557,09/26/19 18:08,-17.73,-149.15,84.092,20,4.1,66
427,Olinda,AU,2154386,09/26/19 18:08,-37.84,145.39,57.34400000000007,98,10.3,58
428,Podgornoye,RU,1494790,09/26/19 18:08,57.79,82.64,33.03140000000006,88,3.05,85
429,Tazovskiy,RU,1489853,09/26/19 18:08,67.47,78.7,33.93140000000007,100,3.65,97
430,Palana,RU,2122262,09/26/19 18:08,59.08,159.95,43.59740000000007,100,9.2,85
431,Aykhal,RU,2027296,09/26/19 18:08,65.95,111.51,32.0,90,2.0,85
432,Puerto Escondido,MX,3520994,09/26/19 18:08,15.86,-97.07,87.8,75,2.6,70
433,Marzuq,YE,72181,09/26/19 18:08,14.4,46.47,78.49940000000005,68,2.26,38
434,Palmer,AU,2067070,09/26/19 18:08,-34.85,139.16,59.19800000000002,0,2.6,38
435,Dhidhdhoo,MV,1337612,09/26/19 18:08,6.88,73.1,82.72940000000008,50,2.19,69
437,Itoman,JP,1861280,09/26/19 18:08,26.12,127.67,79.46600000000001,40,2.6,88
438,Zaysan,KZ,1517060,09/26/19 18:08,47.47,84.87,47.44940000000005,33,0.75,51
439,Salalah,OM,286621,09/26/19 18:08,17.01,54.1,80.6,40,1.5,83
440,Rudraprayag,IN,1258003,09/26/19 18:08,30.29,78.98,61.309400000000025,61,1.12,95
441,Guangyuan,CN,1806466,09/26/19 18:08,32.43,105.86,58.03340000000004,63,0.77,91
442,Itacare,BR,3460940,09/26/19 18:04,-14.28,-39.0,77.0,40,0.5,83
443,Aksarka,RU,1512019,09/26/19 18:08,66.56,67.8,30.601400000000023,76,1.51,88
444,Nurobod,UZ,1513064,09/26/19 18:08,40.91,69.8,64.4,36,3.1,63
447,Oneonta,US,5129852,09/26/19 18:03,42.45,-75.06,60.63800000000005,75,4.49,87
448,Miajadas,ES,2513893,09/26/19 18:08,39.15,-5.91,71.00600000000003,0,1.34,43
449,Abu Dhabi,AE,292968,09/26/19 18:06,24.47,54.37,89.6,0,2.6,75
451,Namwala,ZM,901766,09/26/19 18:08,-15.75,26.45,58.05140000000002,0,2.24,50
452,Beira,ES,3119841,09/26/19 18:08,43.2,-8.36,63.21200000000006,75,6.7,82
454,Chiguayante,CL,3895138,09/26/19 18:08,-36.93,-73.02,55.4,75,2.1,87
455,Cascais,PT,2269594,09/26/19 18:08,38.7,-9.42,64.61600000000001,0,5.7,72
456,Erzin,TR,296852,09/26/19 18:08,36.95,36.2,73.34600000000005,40,2.1,88
457,Port-Gentil,GA,2396518,09/26/19 18:08,-0.72,8.78,78.8,75,4.1,88
458,Shimanovsk,RU,2016701,09/26/19 18:08,52.0,127.67,48.349400000000045,0,4.8,82
459,Bismarck,US,5688025,09/26/19 18:05,46.81,-100.78,63.391999999999996,75,3.6,72
460,Kapit,MY,1737185,09/26/19 18:08,2.02,112.94,72.07340000000006,100,0.11,99
461,Prince Rupert,CA,6113406,09/26/19 18:08,54.32,-130.32,55.4,40,4.6,82
462,Chimaltenango,GT,3598572,09/26/19 18:08,14.66,-90.82,78.8,40,2.1,54
464,Kulhudhuffushi,MV,1337613,09/26/19 18:08,6.62,73.07,82.87340000000006,51,1.79,67
465,Kosum Phisai,TH,1609476,09/26/19 18:08,16.25,103.07,75.2,1,1.5,78
466,Jacmel,HT,3723779,09/26/19 18:08,18.24,-72.54,86.0,75,3.1,70
468,Tabas,IR,113659,09/26/19 18:08,33.6,56.92,82.4,0,1.0,8
469,Kiama,AU,2161515,09/26/19 18:08,-34.67,150.86,59.55800000000001,20,5.1,87
470,Aleksandrovskiy Zavod,RU,2027933,09/26/19 18:08,50.92,117.94,49.26740000000003,54,1.51,67
471,Yulara,AU,6355222,09/26/19 18:08,-25.24,130.99,55.4,2,1.5,50
472,Trairi,BR,3386177,09/26/19 18:08,-3.28,-39.27,76.71740000000003,0,2.76,68
473,Antofagasta,CL,3899539,09/26/19 18:08,-23.65,-70.4,57.2,20,5.1,71
474,Ati,TD,2436400,09/26/19 18:08,13.21,18.34,87.1034,69,8.49,52
475,Bataysk,RU,578740,09/26/19 18:08,47.14,39.74,50.0,40,4.0,87
476,Nioki,CD,2311968,09/26/19 18:08,-2.72,17.69,74.25140000000002,100,1.59,88
477,Hobyo,SO,57000,09/26/19 18:08,5.35,48.53,76.8614,13,9.91,80
478,Nyurba,RU,2018735,09/26/19 18:08,63.29,118.35,30.565400000000057,33,1.9,87
479,Rumphi,MW,924102,09/26/19 18:08,-11.02,33.86,58.95140000000002,25,4.37,76
480,Oussouye,SN,2246901,09/26/19 18:08,12.49,-16.54,82.43600000000006,20,1.0,94
481,Sayyan,YE,70979,09/26/19 18:08,15.17,44.32,73.09940000000005,31,0.46,59
482,Hirara,JP,1862505,09/26/19 18:08,24.8,125.28,78.8,75,5.7,100
483,Santa Vitoria do Palmar,BR,3449747,09/26/19 18:08,-33.52,-53.37,59.36540000000006,4,3.78,65
484,Deputatskiy,RU,2028164,09/26/19 18:08,69.3,139.9,18.631400000000063,100,1.97,92
485,Killybegs,IE,2963295,09/26/19 18:08,54.63,-8.45,48.00200000000008,29,1.79,94
486,Lopandino,RU,534245,09/26/19 18:08,52.46,34.82,46.081400000000066,100,1.34,95
487,Mezen,RU,527321,09/26/19 18:08,65.85,44.24,40.771400000000085,100,4.92,82
488,Dingle,PH,1714733,09/26/19 18:08,11.0,122.67,73.09940000000005,2,1.4,90
489,Brezova pod Bradlom,SK,3060942,09/26/19 18:08,48.66,17.54,51.36800000000009,3,1.5,93
490,Ayame,CI,2292542,09/26/19 18:08,5.61,-3.16,74.48540000000001,55,2.3,92
491,Kastamonu,TR,743882,09/26/19 18:08,41.38,33.78,51.067400000000035,1,0.62,88
492,Churapcha,RU,2025241,09/26/19 18:08,62.0,132.43,42.94940000000005,97,5.12,91
493,Wenling,CN,1791464,09/26/19 18:08,28.38,121.38,66.74000000000002,0,0.77,90
494,Lahaina,US,5849996,09/26/19 18:08,20.87,-156.68,84.65,20,8.7,52
495,Bhum,IN,1275804,09/26/19 18:08,18.47,75.67,73.22540000000004,100,4.52,91
496,Berea,US,4283974,09/26/19 18:08,37.57,-84.3,79.89800000000002,75,3.1,44
498,Pochutla,MX,3517970,09/26/19 18:08,15.74,-96.47,84.70400000000005,90,6.2,78
499,San Juan,AR,3837213,09/26/19 18:07,-31.54,-68.53,71.01140000000001,0,3.41,22
500,Vangaindrano,MG,1054329,09/26/19 18:08,-23.35,47.6,63.93739999999999,5,1.7,97
501,Banda Aceh,ID,1215502,09/26/19 18:05,5.56,95.32,82.56740000000003,19,4.26,76
502,Anadyr,RU,2127202,09/26/19 18:08,64.73,177.51,42.36800000000009,75,17.0,87
503,Swift Current,CA,6160603,09/26/19 18:03,50.29,-107.8,50.0,90,5.1,81
504,Tsagveri,GE,615403,09/26/19 18:08,41.8,43.48,57.63739999999999,100,1.15,89
507,Exeter,GB,2649808,09/26/19 18:08,50.73,-3.53,57.23600000000007,20,5.1,82
508,Kenosha,US,5258393,09/26/19 18:04,42.58,-87.82,70.41200000000006,5,4.1,30
509,Sinnamary,GF,3380290,09/26/19 18:08,5.38,-52.96,82.9274,20,5.22,75
510,Linjiang,CN,2036069,09/26/19 18:08,41.81,126.91,51.751400000000025,38,0.66,89
511,Nampula,MZ,1033356,09/26/19 18:08,-15.12,39.26,62.49740000000007,3,4.58,76
512,Norman Wells,CA,6089245,09/26/19 18:08,65.28,-126.83,41.0,75,6.2,81
513,State College,US,5213681,09/26/19 18:08,40.79,-77.86,71.06000000000009,1,2.6,53
514,Pevek,RU,2122090,09/26/19 18:08,69.7,170.27,32.527400000000014,33,4.16,70
515,Basoko,CD,219414,09/26/19 18:08,1.23,23.61,69.12140000000008,100,0.27,98
516,Rawson,AR,3839307,09/26/19 18:08,-43.3,-65.11,54.955400000000076,78,7.81,32
517,Ambilobe,MG,1082243,09/26/19 18:08,-13.19,49.05,67.21340000000008,0,1.73,79
518,Kavaratti,IN,1267390,09/26/19 18:08,10.57,72.64,80.10140000000003,100,7.3,82
519,Boddam,GB,2655288,09/26/19 18:08,57.47,-1.78,51.96200000000006,25,1.0,93
520,Kenai,US,5866063,09/26/19 18:08,60.55,-151.26,49.29800000000002,1,2.1,53
521,Magadan,RU,2123628,09/26/19 18:08,59.56,150.8,36.88340000000004,0,7.15,56
522,Salym,RU,1493162,09/26/19 18:08,60.06,71.48,31.447400000000073,36,3.47,96
523,La Ronge,CA,6050066,09/26/19 18:06,55.1,-105.3,50.0,75,5.7,46
524,Tual,ID,1623197,09/26/19 18:08,-5.67,132.75,78.17540000000004,93,9.11,85
525,Sri Aman,MY,1735799,09/26/19 18:08,1.24,111.46,77.0,100,0.29,94
526,Maceio,BR,3395981,09/26/19 18:07,-9.67,-35.74,71.6,0,2.6,88
527,Jiexiu,CN,1805833,09/26/19 18:08,37.02,111.92,57.961400000000005,0,0.62,51
528,Katangli,RU,2122783,09/26/19 18:08,51.71,143.23,41.49140000000004,0,4.74,70
529,Leh,IN,1264976,09/26/19 18:08,34.16,77.58,39.349400000000045,0,0.52,47
530,Nouadhibou,MR,2377457,09/26/19 18:08,20.93,-17.03,71.6,0,7.7,78
531,Rome,IT,6539761,09/26/19 18:06,41.89,12.48,65.69600000000005,0,1.5,82
532,Revuca,SK,723747,09/26/19 18:08,48.68,20.12,46.79600000000005,20,4.1,93
533,Killorglin,IE,2963311,09/26/19 18:08,52.1,-9.78,52.705400000000076,52,5.79,90
535,Kaohsiung,TW,1673820,09/26/19 18:08,22.62,120.31,76.13600000000007,40,2.1,88
536,Cuautepec,MX,3529994,09/26/19 18:08,16.75,-99.0,84.43940000000006,89,2.84,71
537,Broken Hill,AU,2173911,09/26/19 18:08,-31.97,141.45,53.6,93,2.6,30
538,Nancha,CN,2035669,09/26/19 18:08,47.14,129.26,51.37340000000006,71,2.0,80
539,Arsenyev,RU,2027468,09/26/19 18:08,44.16,133.27,51.6614,0,1.23,81
540,Jacareacanga,BR,3397763,09/26/19 18:08,-6.22,-57.76,91.4,0,2.25,52
541,Te Anau,NZ,2181625,09/26/19 18:08,-45.41,167.72,42.30140000000002,100,2.3,87
542,Jeremoabo,BR,3459922,09/26/19 18:08,-10.08,-38.34,75.54740000000007,7,4.8,58
544,Keti Bandar,PK,1174451,09/26/19 18:08,24.14,67.45,85.95140000000002,91,3.95,78
545,Sibsagar,IN,1256388,09/26/19 18:08,26.98,94.64,72.23540000000001,15,2.0,98
546,Fort Nelson,CA,5955902,09/26/19 18:08,58.81,-122.69,35.6,90,4.1,93
548,Saint-Augustin,CA,6138501,09/26/19 18:08,45.63,-73.98,61.93399999999999,75,1.5,77
549,Belaya Gora,RU,2126785,09/26/19 18:08,68.54,146.19,22.861400000000003,51,3.77,88
550,Penzance,GB,2640377,09/26/19 18:08,50.12,-5.53,57.43399999999999,75,6.2,93
551,Lao Cai,VN,1576303,09/26/19 18:08,22.48,103.95,54.66740000000003,20,1.63,84
552,Cururupu,BR,3401148,09/26/19 18:08,-1.82,-44.87,78.67940000000009,28,2.16,76
553,Victor Harbor,AU,2059470,09/26/19 18:08,-35.55,138.62,59.522000000000034,0,2.6,38
554,Sena Madureira,BR,3662155,09/26/19 18:08,-9.07,-68.66,86.29340000000002,95,1.23,50
555,Saint-Leu,RE,6690297,09/26/19 18:08,-21.15,55.28,67.316,75,3.1,73
556,Gombong,ID,1649595,09/26/19 18:08,-7.19,109.31,70.95740000000005,76,4.07,84
557,Bullhead City,US,5287565,09/26/19 18:04,35.15,-114.57,83.46200000000006,75,3.6,35
558,Aripuana,BR,3665202,09/26/19 18:08,-9.17,-60.63,86.14940000000004,93,0.26,54
559,Sawakin,SD,367544,09/26/19 18:08,19.1,37.33,82.35140000000003,3,1.89,33
560,Iwanai,JP,2129868,09/26/19 18:08,42.97,140.51,60.085400000000014,86,3.26,94
561,Rantauprapat,ID,1214073,09/26/19 18:08,2.1,99.83,65.14340000000001,19,1.32,95
562,Sompeta,IN,1255816,09/26/19 18:08,18.93,84.6,75.4034,100,0.62,89
563,Turka,RU,2014808,09/26/19 18:08,52.95,108.22,51.42740000000001,34,1.89,87
564,Agadir,MA,2561668,09/26/19 18:08,30.42,-9.58,64.4,75,2.1,93
565,Zhangye,CN,1785036,09/26/19 18:08,38.94,100.46,57.331400000000066,0,2.67,24
566,Guozhen,CN,1927639,09/26/19 18:08,29.3,113.14,67.68140000000007,0,1.5,49
567,Kongsberg,NO,6453373,09/26/19 18:08,59.67,9.65,50.97200000000004,90,3.1,81
568,Alofi,NU,4036284,09/26/19 18:08,-19.06,-169.92,77.0,40,6.7,69
569,Itarema,BR,3393692,09/26/19 18:08,-2.92,-39.92,78.01340000000008,0,5.4,71
570,Kerman,IR,128234,09/26/19 18:08,30.29,57.06,71.6,20,1.0,6
571,Lexington Park,US,4360592,09/26/19 18:08,38.26,-76.45,83.76800000000009,75,1.5,43
572,Alto Araguaia,BR,3472473,09/26/19 18:08,-17.32,-53.22,78.19340000000003,100,1.97,60
573,Tigil,RU,2120612,09/26/19 18:08,57.8,158.67,40.59140000000004,100,7.43,90
574,Karatau,KZ,1519938,09/26/19 18:08,43.18,70.46,60.008,73,3.52,81
575,Choix,MX,4014109,09/26/19 18:08,26.71,-108.33,87.67940000000009,0,2.45,44
576,Rocha,UY,3440777,09/26/19 18:08,-34.48,-54.34,57.205400000000076,0,2.83,73
577,Peniche,PT,2264923,09/26/19 18:08,39.36,-9.38,61.71800000000009,0,5.7,72
578,Flinders,AU,6255012,09/26/19 18:08,-34.58,150.85,60.998000000000026,33,2.15,90
579,Dicabisagan,PH,1715015,09/26/19 18:08,17.08,122.42,72.61340000000008,52,0.9,96
580,Batagay,RU,2027044,09/26/19 18:08,67.65,134.64,32.77940000000009,100,0.96,96
581,Verkhnevilyuysk,RU,2013639,09/26/19 18:08,63.45,120.31,29.82740000000001,17,2.0,93
582,Shiyan,CN,1794903,09/26/19 18:08,32.65,110.78,56.97140000000009,0,1.84,84
583,Yairipok,IN,1252810,09/26/19 18:08,24.67,94.07,62.76740000000003,16,0.24,98
585,Aklavik,CA,5882953,09/26/19 18:08,68.22,-135.01,37.004000000000055,75,3.1,60
586,Mackay,CA,5921525,09/26/19 18:08,53.65,-115.58,42.8,90,7.7,75
587,Padang,ID,1633419,09/26/19 18:08,-0.92,100.36,78.30140000000003,100,4.4,84
589,Paramonga,PE,3933024,09/26/19 18:08,-10.68,-77.82,60.17540000000004,88,4.03,93
590,Pangody,RU,1495626,09/26/19 18:08,65.85,74.49,31.699400000000047,92,4.54,95
591,Buta,CD,217570,09/26/19 18:08,2.79,24.73,70.27340000000007,100,0.96,98
592,Izumo,JP,1861084,09/26/19 18:08,35.37,132.75,67.316,75,2.6,82
593,Hovd,NO,7626384,09/26/19 18:08,63.83,10.7,52.214000000000034,0,4.1,57
594,Punta Alta,AR,3429886,09/26/19 18:08,-27.46,-55.82,82.4,0,5.1,32
595,Mancora,PE,3695000,09/26/19 18:08,-4.1,-81.05,62.6,90,5.1,290
596,Fare,PF,4034496,09/26/19 18:08,-16.7,-151.02,79.25540000000008,54,7.95,78
597,Paamiut,GL,3421193,09/26/19 18:08,61.99,-49.67,44.28140000000006,67,2.4,65
598,Baykit,RU,1510689,09/26/19 18:08,61.68,96.39,28.261400000000002,100,1.56,95
599,Najran,SA,103630,09/26/19 18:08,17.54,44.22,80.6,0,3.1,34
600,Mikumi,TZ,153871,09/26/19 18:08,-7.4,36.98,63.86540000000006,17,0.7,76
601,Warmbad,DE,3305808,09/26/19 18:08,50.67,13.08,57.34400000000007,100,2.6,87
602,Bubaque,GW,2374583,09/26/19 18:08,11.28,-15.83,82.08140000000006,30,3.53,77
603,Dunedin,NZ,2191562,09/26/19 18:08,-45.87,170.5,51.998000000000026,71,12.96,68
604,Ritchie,ZA,961226,09/26/19 18:08,-29.03,24.6,51.26540000000006,0,2.13,29
605,Abnub,EG,362973,09/26/19 18:08,27.27,31.15,82.4,0,2.1,42
606,Oktyabrskoye,RU,1511846,09/26/19 18:08,56.73,85.44,31.58600000000007,0,2.0,74
607,Kharela,IN,1266937,09/26/19 18:08,25.55,79.82,76.66340000000008,100,5.27,89
608,Maun,BW,933366,09/26/19 18:08,-19.99,23.42,58.08739999999999,0,4.11,29
610,San Quintin,PH,1688687,09/26/19 18:08,17.54,120.52,73.6034,0,1.33,88
611,Neiafu,TO,4032420,09/26/19 18:08,-18.65,-173.98,77.0,75,4.1,69
612,Lompoc,US,5367788,09/26/19 18:08,34.64,-120.46,72.5,40,2.1,82
613,Saint-Pierre,FR,2995603,09/26/19 18:08,48.95,4.24,63.62600000000009,0,8.2,82
614,Calamar,CO,3687975,09/26/19 18:08,1.96,-72.65,83.43140000000007,95,1.72,71
615,Karasjok,NO,779350,09/26/19 18:08,69.47,25.52,46.4,90,6.7,100
616,Vila do Maio,CV,3374120,09/26/19 18:08,15.13,-23.22,80.6,40,2.6,74
618,La Libertad,PE,3947322,09/26/19 18:08,-16.38,-71.56,69.8,0,5.1,15
619,Jasper,US,4069659,09/26/19 18:08,33.83,-87.28,91.09400000000008,1,2.54,41
